City ID,City_ID,City,Cloudiness,Country,Date,Humidity,Lat,Lng,Min Temp,Max Temp,Wind Speed
0,2517750,Felanitx,1,ES,2022-11-24 03:16:23,81,39.4696,3.1483,52.322,61.952000000000055,81
1,3369157,Cape Town,90,ZA,2022-11-24 03:11:53,90,-33.9258,18.4232,57.90199999999999,59.882000000000005,90
2,3860443,Comodoro Rivadavia,0,AR,2022-11-24 03:16:27,23,-45.8667,-67.5,57.05599999999998,57.05599999999998,23
3,5866583,Saint Paul Harbor,20,US,2022-11-24 03:16:30,75,57.79,-152.4072,36.91399999999999,36.91399999999999,75
4,1735106,George Town,40,MY,2022-11-24 03:08:19,84,5.4112,100.3354,82.238,84.88399999999996,84
5,119505,Qazvin,0,IR,2022-11-24 03:16:34,60,36.2797,50.0049,38.822,38.822,60
6,746565,Görele,61,TR,2022-11-24 03:16:36,56,41.0308,39.0031,59.05400000000003,59.05400000000003,56
7,3374210,São Filipe,100,CV,2022-11-24 03:16:37,64,14.8961,-24.4956,77.05400000000003,77.05400000000003,64
8,5282297,Bethel,0,US,2022-11-24 03:12:58,72,41.3712,-73.414,29.55200000000002,41.936000000000035,72
9,3874787,Punta Arenas,0,CL,2022-11-24 03:14:37,81,-53.15,-70.9167,39.110000000000014,39.307999999999936,81
10,2347758,Bara,100,NG,2022-11-24 03:16:42,20,10.3744,10.7288,66.70400000000001,66.70400000000001,20
11,3366880,Hermanus,100,ZA,2022-11-24 03:16:44,79,-34.4187,19.2345,57.79400000000004,57.79400000000004,79
12,1214488,Meulaboh,67,ID,2022-11-24 03:16:46,77,4.1363,96.1285,80.34800000000001,80.34800000000001,77
13,2037485,Erenhot,13,CN,2022-11-24 03:16:47,34,43.6475,111.9767,38.58800000000002,38.58800000000002,34
14,2742416,Barcelos,100,PT,2022-11-24 03:13:20,91,41.5388,-8.6151,55.92199999999997,59.14400000000006,91
15,5106841,Albany,12,US,2022-11-24 03:14:10,77,42.6001,-73.9662,27.949999999999932,38.048,77
16,2163355,Hobart,75,AU,2022-11-24 03:08:49,57,-42.8794,147.3294,61.23200000000003,67.262,57
17,3833367,Ushuaia,75,AR,2022-11-24 03:16:54,81,-54.8,-68.3,38.85799999999995,38.85799999999995,81
18,5924351,Clyde River,100,CA,2022-11-24 03:16:56,71,70.4692,-68.5914,-5.566000000000031,-5.566000000000031,71
19,3418910,Upernavik,100,GL,2022-11-24 03:16:58,89,72.7868,-56.1549,21.452000000000055,21.452000000000055,89
20,3383434,Nieuw Amsterdam,92,SR,2022-11-24 03:17:00,92,5.8833,-55.0833,76.01000000000005,77.16199999999998,92
21,2194098,Ahipara,56,NZ,2022-11-24 03:17:02,67,-35.1667,173.1667,64.43599999999998,64.43599999999998,67
22,5354943,Half Moon Bay,20,US,2022-11-24 03:17:04,72,37.4636,-122.4286,50.88199999999995,60.476000000000056,72
23,2112802,Hasaki,3,JP,2022-11-24 03:17:06,57,35.7333,140.8333,66.59600000000006,68.28799999999995,57
24,3698359,Chicama,6,PE,2022-11-24 03:17:09,80,-7.8447,-79.1469,63.13999999999993,63.13999999999993,80
25,3386213,Touros,7,BR,2022-11-24 03:16:29,79,-5.1989,-35.4608,77.68399999999991,77.68399999999991,79
26,1529376,Korla,0,CN,2022-11-24 03:17:13,34,41.7597,86.1469,39.97399999999999,39.97399999999999,34
27,1819729,Hong Kong,100,HK,2022-11-24 03:16:35,91,22.2855,114.1577,71.94199999999995,74.03000000000003,91
28,1153241,Huai Yot,99,TH,2022-11-24 03:17:16,86,7.7893,99.6348,81.51800000000009,83.82199999999995,86
29,6445060,Sainte-Maxime,0,FR,2022-11-24 03:17:17,50,43.3,6.6333,50.75599999999997,55.994000000000085,50
30,713055,Babanka,100,UA,2022-11-24 03:17:21,91,48.7097,30.4483,40.83800000000002,40.83800000000002,91
31,2075265,Busselton,100,AU,2022-11-24 03:17:22,51,-33.65,115.3333,67.06400000000002,67.06400000000002,51
32,5122534,Jamestown,0,US,2022-11-24 03:17:27,62,42.097,-79.2353,25.52000000000004,38.839999999999975,62
33,1507390,Dikson,92,RU,2022-11-24 03:17:29,98,73.5069,80.5464,-21.406000000000006,-21.406000000000006,98
34,3372707,Ribeira Grande,74,PT,2022-11-24 03:17:31,72,38.5167,-28.7,59.773999999999944,59.773999999999944,72
35,4032243,Vaini,40,TO,2022-11-24 03:17:32,74,-21.2,-175.2,84.36200000000002,84.36200000000002,74
36,209598,Manono,100,CD,2022-11-24 03:17:34,91,-7.3,27.4167,66.9919999999999,66.9919999999999,91
37,3137469,Sørland,100,NO,2022-11-24 03:17:36,57,67.667,12.6934,39.05599999999998,39.05599999999998,57
38,1863997,Fukuechō,75,JP,2022-11-24 03:17:38,55,32.6881,128.8419,66.56,66.56,55
39,1490796,Strezhevoy,100,RU,2022-11-24 03:17:40,96,60.7333,77.5889,0.98599999999999,0.98599999999999,96
40,2191562,Dunedin,86,NZ,2022-11-24 03:13:16,52,-45.8742,170.5036,58.80200000000008,58.80200000000008,52
41,3416888,Grindavik,0,IS,2022-11-24 03:17:43,70,63.8424,-22.4338,41.46800000000002,42.74599999999998,70
42,1604771,Yaring,84,TH,2022-11-24 03:17:45,76,6.8662,101.3689,82.04000000000002,82.04000000000002,76
43,2155415,New Norfolk,100,AU,2022-11-24 03:17:46,49,-42.7826,147.0587,60.88999999999993,65.91199999999998,49
44,86049,Jalu,2,LY,2022-11-24 03:17:48,65,29.0331,21.5482,57.88399999999996,57.88399999999996,65
45,1106677,Bambous Virieux,40,MU,2022-11-24 03:17:50,78,-20.3428,57.7575,77.25200000000001,78.22399999999999,78
46,1520381,Ordzhonīkīdze,100,KZ,2022-11-24 03:17:52,96,52.4411,61.7408,22.639999999999986,22.639999999999986,96
47,2063036,Port Lincoln,0,AU,2022-11-24 03:17:53,64,-34.7333,135.8667,64.382,64.382,64
48,6170031,Tuktoyaktuk,100,CA,2022-11-24 03:17:55,92,69.4541,-133.0374,10.399999999999977,10.399999999999977,92
49,551667,Kavkazskiy,100,RU,2022-11-24 03:17:57,86,44.2672,42.2347,40.69400000000002,40.69400000000002,86
50,3443061,Chui,5,UY,2022-11-24 03:17:59,71,-33.6971,-53.4616,59.593999999999994,59.593999999999994,71
51,1273246,Deogarh,14,IN,2022-11-24 03:18:01,47,21.5333,84.7333,70.80799999999994,70.80799999999994,47
52,2098329,Daru,100,PG,2022-11-24 03:18:02,63,-9.0763,143.2092,86.93599999999998,86.93599999999998,63
53,2871736,Merseburg,20,DE,2022-11-24 03:18:05,84,51.3667,12.0,37.202000000000055,39.72199999999998,84
54,2108857,Gizo Government Station,62,SB,2022-11-24 03:18:08,68,-8.103,156.8419,84.05599999999998,84.05599999999998,68
55,2110227,Butaritari,12,KI,2022-11-24 03:18:12,69,3.0707,172.7902,80.88799999999998,80.88799999999998,69
56,4020109,Atuona,12,PF,2022-11-24 03:18:15,77,-9.8,-139.0333,77.89999999999992,77.89999999999992,77
57,1502422,Kosh-Agach,76,RU,2022-11-24 03:18:17,74,50.0,88.6667,-0.057999999999992724,-0.057999999999992724,74
58,2017155,Saskylakh,96,RU,2022-11-24 03:18:19,100,71.9167,114.0833,-35.24800000000005,-35.24800000000005,100
59,4035715,Avarua,75,CK,2022-11-24 03:18:25,78,-21.2078,-159.775,78.85399999999998,78.85399999999998,78
60,2122090,Pevek,100,RU,2022-11-24 03:18:27,95,69.7008,170.3133,-23.187999999999988,-23.187999999999988,95
61,2029156,Sühbaatar,95,MN,2022-11-24 03:18:30,75,50.2314,106.2078,16.412000000000035,16.412000000000035,75
62,3838859,Río Gallegos,0,AR,2022-11-24 03:18:32,75,-51.6226,-69.2181,39.25400000000002,39.25400000000002,75
63,2264557,Ponta do Sol,30,PT,2022-11-24 03:18:34,67,32.6667,-17.1,64.00399999999996,66.12799999999999,67
64,2208248,Kaitangata,73,NZ,2022-11-24 03:18:35,48,-46.2817,169.8464,59.54000000000002,59.54000000000002,48
65,2092164,Lorengau,97,PG,2022-11-24 03:18:37,63,-2.0226,147.2712,86.43199999999996,86.43199999999996,63
66,3423146,Ilulissat,13,GL,2022-11-24 03:18:39,92,69.2167,-51.1,14.018000000000029,14.018000000000029,92
67,546105,Nikolskoye,33,RU,2022-11-24 03:18:41,91,59.7035,30.7861,17.779999999999973,22.910000000000025,91
68,6201424,Mataura,54,NZ,2022-11-24 03:18:43,76,-46.1927,168.8643,56.47999999999996,56.47999999999996,76
69,795243,Snezhnogorsk,67,RU,2022-11-24 03:18:45,94,69.1933,33.2531,11.786000000000001,11.983999999999924,94
70,2126123,Chokurdakh,70,RU,2022-11-24 03:18:46,100,70.6333,147.9167,-30.56800000000004,-30.56800000000004,100
71,2400547,Gamba,81,GA,2022-11-24 03:18:48,88,-2.65,10.0,76.56800000000004,76.56800000000004,88
72,3454005,Piaçabuçu,30,BR,2022-11-24 03:18:50,86,-10.4056,-36.4344,75.02000000000004,75.02000000000004,86
73,964432,Port Alfred,56,ZA,2022-11-24 03:18:53,84,-33.5906,26.891,65.17399999999992,65.17399999999992,84
74,5110365,Broome,0,US,2022-11-24 03:18:55,75,42.2506,-75.833,24.90799999999996,35.97800000000001,75
75,2134814,Sola,40,VU,2022-11-24 03:18:58,70,-13.8833,167.55,90.26600000000002,90.26600000000002,70
76,3006414,La Seyne-sur-Mer,0,FR,2022-11-24 03:19:00,54,43.0982,5.8847,52.537999999999954,56.60599999999994,54
77,2136697,Lakatoro,98,VU,2022-11-24 03:19:02,66,-16.0999,167.4164,85.62200000000001,85.62200000000001,66
78,5896969,Beaverlodge,100,CA,2022-11-24 03:19:04,92,55.2166,-119.4361,36.75200000000001,36.75200000000001,92
79,3517970,Pochutla,97,MX,2022-11-24 03:19:06,85,15.7432,-96.4661,75.81200000000007,75.81200000000007,85
80,2349431,Sabla,2,NG,2022-11-24 03:19:08,17,12.7525,4.7077,67.92800000000005,67.92800000000005,17
81,964420,Port Elizabeth,40,ZA,2022-11-24 03:18:53,82,-33.918,25.5701,62.31200000000007,64.094,82
82,3577154,Oranjestad,12,AW,2022-11-24 03:14:20,87,12.524,-70.027,79.916,79.916,87
83,3174922,Legnago,6,IT,2022-11-24 03:19:17,84,45.1832,11.3091,36.08600000000001,42.710000000000036,84
84,3831208,Qaanaaq,91,GL,2022-11-24 03:19:19,90,77.484,-69.3632,11.299999999999955,11.299999999999955,90
85,3936456,Lima,0,PE,2022-11-24 03:16:59,81,-12.0432,-77.0282,66.45200000000006,66.90199999999999,81
86,1525988,Ayagoz,100,KZ,2022-11-24 03:19:23,89,47.9714,80.4392,0.06799999999998363,0.06799999999998363,89
87,1274468,Chetwayi,100,IN,2022-11-24 03:19:24,80,10.5333,76.05,77.16199999999998,77.16199999999998,80
88,3571913,Marsh Harbour,6,BS,2022-11-24 03:19:26,76,26.5412,-77.0636,78.85399999999998,78.85399999999998,76
89,935215,Saint-Philippe,32,RE,2022-11-24 03:19:28,79,-21.3585,55.7679,75.11000000000007,78.38600000000002,79
90,1651103,Atambua,100,ID,2022-11-24 03:19:30,64,-9.1061,124.8925,84.23600000000005,84.23600000000005,64
91,4030556,Rikitea,99,PF,2022-11-24 03:19:32,85,-23.1203,-134.9692,71.54599999999999,71.54599999999999,85
92,1805515,Jinji,100,CN,2022-11-24 03:19:34,98,23.2281,110.8261,65.40799999999996,65.40799999999996,98
93,358620,Safaga,0,EG,2022-11-24 03:19:36,51,26.7292,33.9365,68.64799999999997,68.64799999999997,51
94,2137773,Vao,87,NC,2022-11-24 03:19:38,81,-22.6667,167.4833,74.10200000000003,74.10200000000003,81
95,5880054,Barrow,100,US,2022-11-24 03:19:40,85,71.2906,-156.7887,6.8180000000000405,6.8180000000000405,85
96,4031742,Egvekinot,100,RU,2022-11-24 03:19:41,95,66.3167,-179.1667,3.254000000000019,3.254000000000019,95
97,3466704,Castro,23,BR,2022-11-24 03:19:45,95,-24.7911,-50.0119,60.962000000000046,60.962000000000046,95
98,777019,Vardø,20,NO,2022-11-24 03:19:47,86,70.3705,31.1107,21.18199999999996,21.18199999999996,86
99,2377450,Nouakchott,5,MR,2022-11-24 03:14:59,27,18.0858,-15.9785,62.52800000000008,62.52800000000008,27
100,934517,Flic en Flac,7,MU,2022-11-24 03:19:50,77,-20.2742,57.3631,77.55799999999994,78.53000000000003,77
101,6089245,Norman Wells,40,CA,2022-11-24 03:19:52,78,65.282,-126.8329,-0.36400000000003274,-0.36400000000003274,78
102,3652764,Puerto Ayora,58,EC,2022-11-24 03:19:54,97,-0.7393,-90.3518,67.55000000000001,67.55000000000001,97
103,2161515,Kiama,5,AU,2022-11-24 03:19:55,66,-34.6833,150.8667,68.44999999999999,68.44999999999999,66
104,2446796,Bilma,16,NE,2022-11-24 03:19:57,24,18.6853,12.9164,61.952000000000055,61.952000000000055,24
105,1015776,Bredasdorp,100,ZA,2022-11-24 03:19:59,81,-34.5322,20.0403,60.53000000000003,60.53000000000003,81
106,933077,Shakawe,100,BW,2022-11-24 03:20:01,62,-18.3667,21.85,71.65400000000005,71.65400000000005,62
107,2444219,Gouré,0,NE,2022-11-24 03:20:02,22,13.9835,10.2704,64.11200000000002,64.11200000000002,22
108,4021858,Guerrero Negro,0,MX,2022-11-24 03:20:04,70,27.9769,-114.0611,62.18599999999998,62.18599999999998,70
109,6165406,Thompson,20,CA,2022-11-24 03:15:52,93,55.7435,-97.8558,23.162000000000035,23.162000000000035,93
110,1649150,Bengkulu,100,ID,2022-11-24 03:20:07,80,-3.8004,102.2655,78.31400000000002,78.31400000000002,80
111,209228,Mbuji-Mayi,94,CD,2022-11-24 03:16:27,94,-6.15,23.6,65.714,65.714,94
112,1566166,Thanh Hoa,100,VN,2022-11-24 03:20:10,91,19.8,105.7667,76.71200000000005,76.71200000000005,91
113,3687972,Calamar,14,CO,2022-11-24 03:20:12,90,10.2511,-74.9146,74.69599999999997,74.69599999999997,90
114,128321,Kāzerūn,73,IR,2022-11-24 03:20:14,66,29.6195,51.6541,60.76399999999995,60.76399999999995,66
115,1524889,Chardara,100,KZ,2022-11-24 03:20:16,57,41.2547,67.9692,53.58199999999994,53.58199999999994,57
116,2180815,Tuatapere,80,NZ,2022-11-24 03:20:17,76,-46.1333,167.6833,50.846000000000004,50.846000000000004,76
117,2206939,Bluff,36,NZ,2022-11-24 03:20:19,65,-46.6,168.3333,56.80400000000003,56.80400000000003,65
118,2152659,Port Macquarie,6,AU,2022-11-24 03:20:21,54,-31.4333,152.9167,77.89999999999992,77.89999999999992,54
119,4035249,Lufilufi,16,WS,2022-11-24 03:20:23,76,-13.8745,-171.5986,81.78799999999995,81.78799999999995,76
120,315202,Eskişehir,75,TR,2022-11-24 03:18:44,93,39.7767,30.5206,46.273999999999944,46.31000000000006,93
121,2022773,Khandyga,91,RU,2022-11-24 03:20:26,98,62.6667,135.6,-20.865999999999985,-20.865999999999985,98
122,2025256,Chumikan,2,RU,2022-11-24 03:20:28,71,54.7183,135.315,7.646000000000015,7.646000000000015,71
123,5861897,Fairbanks,100,US,2022-11-24 03:20:03,87,64.8378,-147.7164,4.981999999999971,10.363999999999976,87
124,1006984,East London,20,ZA,2022-11-24 03:20:31,88,-33.0153,27.9116,67.13600000000002,67.13600000000002,88
125,3466993,Caarapó,100,BR,2022-11-24 03:20:33,82,-22.6342,-54.8222,63.93199999999996,63.93199999999996,82
126,2126710,Beringovskiy,99,RU,2022-11-24 03:20:34,90,63.05,179.3167,26.005999999999972,26.005999999999972,90
127,5546220,Saint George,0,US,2022-11-24 03:20:07,29,37.1041,-113.5841,48.25400000000002,54.19400000000002,29
128,4034551,Faanui,97,PF,2022-11-24 03:20:38,74,-16.4833,-151.75,79.71800000000002,79.71800000000002,74
129,5870133,Nome,100,US,2022-11-24 03:20:39,86,64.5011,-165.4064,17.113999999999976,21.27199999999999,86
130,2654970,Brae,100,GB,2022-11-24 03:20:41,85,60.3964,-1.353,47.62399999999997,47.62399999999997,85
131,2015306,Tiksi,100,RU,2022-11-24 03:20:43,100,71.6872,128.8694,-26.608000000000004,-26.608000000000004,100
132,2618795,Klaksvík,100,FO,2022-11-24 03:20:44,89,62.2266,-6.589,47.31800000000004,47.31800000000004,89
133,5278931,Whitewater,97,US,2022-11-24 03:20:46,84,42.8336,-88.7323,35.92399999999998,45.08600000000001,84
134,3421719,Narsaq,96,GL,2022-11-24 03:20:48,66,60.9167,-46.05,41.21599999999995,41.21599999999995,66
135,1591474,Bac Lieu,98,VN,2022-11-24 03:20:49,77,9.285,105.7244,83.40799999999996,83.40799999999996,77
136,556268,Ostrovnoy,87,RU,2022-11-24 03:20:51,84,68.0531,39.5131,23.27000000000004,23.27000000000004,84
137,5955826,Fort Frances,0,CA,2022-11-24 03:17:37,69,48.5999,-93.4003,35.815999999999974,35.815999999999974,69
138,5024719,Duluth,75,US,2022-11-24 03:20:54,94,46.7833,-92.1066,25.555999999999983,36.87800000000004,94
139,2071860,Esperance,57,AU,2022-11-24 03:20:56,58,-33.8667,121.9,74.30000000000001,74.30000000000001,58
140,2441447,Maïné Soroa,70,NE,2022-11-24 03:20:57,22,13.2114,12.0241,66.84800000000001,66.84800000000001,22
141,1175296,Kalat,16,PK,2022-11-24 03:20:59,21,29.0225,66.5916,45.84199999999993,45.84199999999993,21
142,368246,Raja,11,SS,2022-11-24 03:21:01,41,8.4596,25.678,72.28399999999993,72.28399999999993,41
143,4866371,Marshalltown,0,US,2022-11-24 03:21:03,81,42.0494,-92.908,39.23600000000005,44.29400000000004,81
144,1282256,Hithadhoo,48,MV,2022-11-24 03:21:05,73,-0.6,73.0833,81.84199999999993,81.84199999999993,73
145,5848280,Kapaa,20,US,2022-11-24 03:21:07,78,22.0752,-159.319,72.19400000000002,78.78199999999998,78
146,1168312,Pasni,90,PK,2022-11-24 03:21:09,25,25.2631,63.471,74.58800000000002,74.58800000000002,25
147,3393692,Itarema,38,BR,2022-11-24 03:21:11,74,-2.9248,-39.9167,78.7100000000001,78.7100000000001,74
148,5983720,Iqaluit,0,CA,2022-11-24 03:21:12,63,63.7506,-68.5145,-6.069999999999993,-5.314000000000021,63
149,1809263,Guozhen,99,CN,2022-11-24 03:21:14,57,34.3659,107.359,55.14799999999997,55.14799999999997,57
150,2980080,Saint-François,42,FR,2022-11-24 03:21:16,81,46.4154,3.9054,44.04199999999997,44.04199999999997,81
151,5856516,‘Āhuimanu,75,US,2022-11-24 03:21:18,75,21.4447,-157.8378,73.36399999999998,78.512,75
152,1337607,Kudahuvadhoo,99,MV,2022-11-24 03:21:17,73,2.6708,72.8944,81.57199999999995,81.57199999999995,73
153,2074113,Collie,100,AU,2022-11-24 03:21:22,44,-33.3667,116.15,71.02399999999994,71.02399999999994,44
154,2524881,Crotone,8,IT,2022-11-24 03:21:23,69,39.0851,17.1178,56.19199999999995,56.19199999999995,69
155,6078372,Moose Factory,100,CA,2022-11-24 03:21:25,80,51.2585,-80.6094,26.581999999999994,26.599999999999966,80
156,3414079,Olafsvik,100,IS,2022-11-24 03:21:27,85,64.8945,-23.7142,39.146000000000015,39.146000000000015,85
157,3842670,Olavarría,0,AR,2022-11-24 03:21:28,56,-36.8927,-60.3225,61.268000000000086,61.268000000000086,56
158,5391295,Salinas,0,US,2022-11-24 03:21:30,67,36.6777,-121.6555,50.82800000000003,59.05400000000003,67
159,2127060,Arman',99,RU,2022-11-24 03:21:32,77,59.7,150.1667,3.0200000000000387,3.0200000000000387,77
160,2175403,Blackwater,97,AU,2022-11-24 03:21:33,23,-23.5833,148.8833,81.84199999999993,81.84199999999993,23
161,2022572,Khatanga,57,RU,2022-11-24 03:21:36,100,71.9667,102.5,-40.75600000000003,-40.75600000000003,100
162,240604,Bambari,76,CF,2022-11-24 03:21:38,80,5.768,20.6757,72.41000000000003,72.41000000000003,80
163,492042,Sloboda,17,RU,2022-11-24 03:21:40,94,51.1421,40.3021,25.628000000000043,25.628000000000043,94
164,2068110,Kununurra,75,AU,2022-11-24 03:21:41,88,-15.7667,128.7333,76.98200000000003,76.98200000000003,88
165,4726521,San Patricio,96,US,2022-11-24 03:21:43,97,28.017,-97.5169,62.85200000000003,69.656,97
166,2123979,Kuril'sk,100,RU,2022-11-24 03:21:45,66,45.2333,147.8833,40.370000000000005,40.370000000000005,66
167,2018735,Nyurba,100,RU,2022-11-24 03:21:46,99,63.2842,118.3319,-25.726,-25.726,99
168,2255542,Owando,67,CG,2022-11-24 03:21:48,91,-0.4819,15.8999,70.142,70.142,91
169,3445026,Vila Velha,20,BR,2022-11-24 03:21:50,92,-20.3297,-40.2925,73.94,75.14600000000002,92
170,3996426,Matamoros,40,MX,2022-11-24 03:21:52,35,25.5333,-103.25,68.108,71.70799999999991,35
171,4505215,Amberley,0,US,2022-11-24 03:21:53,62,39.2048,-84.428,30.75799999999998,47.299999999999955,62
172,2168305,Dubbo,0,AU,2022-11-24 03:21:58,33,-32.25,148.6167,77.12600000000003,77.12600000000003,33
173,4031574,Provideniya,100,RU,2022-11-24 03:22:01,79,64.3833,-173.3,19.363999999999976,19.50799999999998,79
174,2629833,Husavik,100,IS,2022-11-24 03:22:03,96,66.0449,-17.3389,39.81200000000001,39.81200000000001,96
175,1785964,Yudong,100,CN,2022-11-24 03:22:05,95,29.385,106.5194,61.39400000000006,62.491999999999905,95
176,1257456,Sandūr,97,IN,2022-11-24 03:22:07,79,15.1,76.55,73.25600000000003,73.25600000000003,79
177,6324729,Halifax,46,CA,2022-11-24 03:20:34,58,44.6453,-63.5724,25.699999999999932,28.454000000000008,58
178,3461888,Guarapari,100,BR,2022-11-24 03:22:10,90,-20.6667,-40.4975,73.88600000000002,73.88600000000002,90
179,1651810,Airai,68,TL,2022-11-24 03:22:12,66,-8.9266,125.4092,73.59800000000001,73.59800000000001,66
180,1622318,Waingapu,98,ID,2022-11-24 03:22:14,61,-9.6567,120.2641,88.30400000000003,88.30400000000003,61
181,6185377,Yellowknife,100,CA,2022-11-24 03:17:59,86,62.456,-114.3525,18.122000000000014,18.122000000000014,86
182,2374583,Bubaque,97,GW,2022-11-24 03:18:15,64,11.2833,-15.8333,81.93199999999996,81.93199999999996,64
183,1816373,Bijie,100,CN,2022-11-24 03:22:21,89,27.3125,105.2942,50.10799999999995,50.10799999999995,89
184,1507116,Dudinka,49,RU,2022-11-24 03:22:23,100,69.4058,86.1778,-40.846000000000004,-40.846000000000004,100
185,1624725,Tarakan,20,ID,2022-11-24 03:22:25,79,3.3,117.6333,83.69599999999997,83.69599999999997,79
186,1486321,Yar-Sale,99,RU,2022-11-24 03:22:27,100,66.8333,70.8333,-10.444000000000017,-10.444000000000017,100
187,3628473,San Cristobal,92,VE,2022-11-24 03:22:29,97,7.7669,-72.225,68.18,68.18,97
188,2028164,Deputatsky,95,RU,2022-11-24 03:22:31,99,69.3,139.9,-30.118000000000052,-30.118000000000052,99
189,2447513,Arlit,90,NE,2022-11-24 03:22:33,15,18.7369,7.3853,65.858,65.858,15
190,3424607,Tasiilaq,84,GL,2022-11-24 03:22:35,67,65.6145,-37.6368,32.162000000000035,32.162000000000035,67
191,2126682,Bilibino,100,RU,2022-11-24 03:22:37,92,68.0546,166.4372,-9.256000000000029,-9.256000000000029,92
192,2338660,Yaan,6,NG,2022-11-24 03:22:38,28,7.3833,8.5667,70.48399999999998,70.48399999999998,28
193,608872,Makat,0,KZ,2022-11-24 03:22:40,72,47.6469,53.3463,38.983999999999924,38.983999999999924,72
194,3379316,Lethem,98,GY,2022-11-24 03:22:44,86,3.3803,-59.7968,75.95599999999996,75.95599999999996,86
195,2126785,Belaya Gora,100,RU,2022-11-24 03:22:46,99,68.5333,146.4167,-30.244000000000028,-30.244000000000028,99
196,2206894,Hokitika,100,NZ,2022-11-24 03:22:48,69,-42.7167,170.9667,55.363999999999976,55.363999999999976,69
197,1280849,Kashgar,0,CN,2022-11-24 03:22:50,18,39.4547,75.9797,51.00799999999998,51.00799999999998,18
198,3588476,Tecpan,26,GT,2022-11-24 03:22:51,96,14.7623,-90.9947,52.89799999999997,52.89799999999997,96
199,1267457,Katwa,31,IN,2022-11-24 03:21:10,38,23.6399,88.128,72.28399999999993,72.28399999999993,38
200,481548,Troitsko-Pechorsk,97,RU,2022-11-24 03:22:54,100,62.7084,56.1964,-8.427999999999997,-8.427999999999997,100
201,2450173,Taoudenni,100,ML,2022-11-24 03:21:11,10,22.6783,-3.9836,70.57400000000001,70.57400000000001,10
202,933995,Souillac,40,MU,2022-11-24 03:22:59,78,-20.5167,57.5167,77.37799999999999,77.37799999999999,78
203,3467577,Canavieiras,92,BR,2022-11-24 03:23:00,92,-15.675,-38.9472,72.69800000000004,72.69800000000004,92
204,2171099,Codrington,86,AU,2022-11-24 03:23:03,64,-38.2667,141.9667,60.26000000000005,60.26000000000005,64
205,3521108,Progreso,54,MX,2022-11-24 03:20:16,86,21.2833,-89.6667,77.108,77.108,86
206,3404558,Cabedelo,65,BR,2022-11-24 03:23:06,77,-6.9811,-34.8339,77.666,77.666,77
207,4513583,Hamilton,100,US,2022-11-24 03:23:08,60,39.1834,-84.5333,36.51800000000003,47.983999999999924,60
208,3573374,The Valley,0,AI,2022-11-24 03:23:10,69,18.217,-63.0578,79.82600000000008,80.45599999999996,69
209,6113406,Prince Rupert,100,CA,2022-11-24 03:23:12,91,54.3161,-130.3201,47.894000000000005,49.69400000000002,91
210,2315728,Gemena,25,CD,2022-11-24 03:23:13,94,3.25,19.7667,69.22399999999999,69.22399999999999,94
211,4031637,Lavrentiya,100,RU,2022-11-24 03:23:16,81,65.5833,-171.0,15.673999999999978,15.673999999999978,81
212,3353383,Rundu,100,NA,2022-11-24 03:23:18,72,-17.9333,19.7667,70.142,70.142,72
213,2127202,Anadyr,100,RU,2022-11-24 03:23:19,92,64.75,177.4833,21.00200000000001,21.704000000000008,92
214,2377457,Nouadhibou,0,MR,2022-11-24 03:23:22,71,20.931,-17.0347,67.63999999999993,67.63999999999993,71
215,3877348,Panguipulli,52,CL,2022-11-24 03:23:23,97,-39.6333,-72.3333,54.391999999999996,54.391999999999996,97
216,559752,Gornozavodsk,100,RU,2022-11-24 03:23:25,87,58.3758,58.3211,13.387999999999977,13.387999999999977,87
217,5563839,Fortuna,0,US,2022-11-24 03:23:28,100,40.5982,-124.1573,46.74199999999996,47.31800000000004,100
218,2507480,Algiers,75,DZ,2022-11-24 03:21:59,72,36.7525,3.042,62.420000000000016,62.420000000000016,72
219,3685702,Cravo Norte,66,CO,2022-11-24 03:23:31,81,6.3017,-70.2041,75.88399999999996,75.88399999999996,81
220,2392087,Porto-Novo,17,BJ,2022-11-24 03:23:33,87,6.4965,2.6036,78.62000000000006,78.62000000000006,87
221,3407762,Amapá,67,BR,2022-11-24 03:23:35,100,1.0,-52.0,71.20400000000001,71.20400000000001,100
222,471160,Voznesen'ye,11,RU,2022-11-24 03:23:37,79,61.0106,35.4781,22.51400000000001,22.51400000000001,79
223,333750,Jinka,35,ET,2022-11-24 03:23:39,61,5.65,36.65,62.132000000000005,62.132000000000005,61
224,5855927,Hilo,20,US,2022-11-24 03:23:41,77,19.7297,-155.09,72.62600000000003,78.53000000000003,77
225,2729907,Longyearbyen,75,SJ,2022-11-24 03:23:42,93,78.2186,15.6401,31.838000000000022,31.838000000000022,93
226,3372964,Lagoa,100,PT,2022-11-24 03:23:44,62,39.05,-27.9833,60.72800000000001,60.72800000000001,62
227,2074865,Carnarvon,0,AU,2022-11-24 03:23:46,54,-24.8667,113.6333,76.06400000000002,76.06400000000002,54
228,5557293,Sitka,100,US,2022-11-24 03:23:47,76,57.0531,-135.33,49.89199999999994,49.89199999999994,76
229,5563397,Eureka,82,US,2022-11-24 03:23:45,71,40.8021,-124.1637,47.012,47.58800000000002,71
230,2064735,Nhulunbuy,47,AU,2022-11-24 03:23:51,55,-12.2333,136.7667,92.012,92.012,55
231,3985710,Cabo San Lucas,20,MX,2022-11-24 03:23:53,69,22.8909,-109.9124,71.906,74.51600000000002,69
232,2121385,Severo-Kuril'sk,89,RU,2022-11-24 03:23:55,62,50.6789,156.125,35.38399999999996,35.38399999999996,62
233,3156980,Florø,100,NO,2022-11-24 03:23:57,46,61.5996,5.0328,46.95799999999997,48.16399999999999,46
234,5158275,Huron,2,US,2022-11-24 03:23:59,65,41.1501,-82.5499,36.15799999999996,42.926000000000045,65
235,3402648,Carutapera,48,BR,2022-11-24 03:24:04,85,-1.195,-46.02,77.91800000000006,77.91800000000006,85
236,6137462,Saint-Augustin,56,CA,2022-11-24 03:24:06,82,51.226,-58.6502,7.628000000000043,7.628000000000043,82
237,3393536,Olinda,75,BR,2022-11-24 03:20:26,69,-8.0089,-34.8553,80.32999999999998,80.32999999999998,69
238,5570065,Red Bluff,0,US,2022-11-24 03:20:36,23,40.1785,-122.2358,52.68199999999996,65.084,23
239,286245,Sur,67,OM,2022-11-24 03:24:14,52,22.5667,59.5289,76.92800000000005,76.92800000000005,52
240,2409215,Mattru,100,SL,2022-11-24 03:24:15,91,7.6244,-11.8332,72.84199999999993,72.84199999999993,91
241,3468020,Camapuã,90,BR,2022-11-24 03:24:17,72,-19.5314,-54.0439,75.02000000000004,75.02000000000004,72
242,3471451,Arraial do Cabo,100,BR,2022-11-24 03:24:19,92,-22.9661,-42.0278,73.52600000000001,73.52600000000001,92
243,191038,Kitui,49,KE,2022-11-24 03:24:22,96,-1.367,38.0106,60.853999999999985,60.853999999999985,96
244,1168700,Ormara,57,PK,2022-11-24 03:24:24,48,25.2088,64.6357,74.82199999999995,74.82199999999995,48
245,2126199,Cherskiy,99,RU,2022-11-24 03:24:26,98,68.75,161.3,-28.930000000000007,-28.930000000000007,98
246,3247449,Aachen,71,DE,2022-11-24 03:24:29,77,50.7766,6.0834,44.653999999999996,47.426000000000045,77
247,523392,Naryan-Mar,85,RU,2022-11-24 03:24:31,96,67.6713,53.087,17.870000000000005,17.870000000000005,96
248,933535,Letlhakane,98,BW,2022-11-24 03:24:33,42,-21.4167,25.5833,78.07999999999998,78.07999999999998,42
249,3761194,Miraflores,94,MX,2022-11-24 03:24:35,73,19.2167,-98.8083,60.872000000000014,61.448000000000036,73
250,2961459,Skibbereen,98,IE,2022-11-24 03:24:38,85,51.55,-9.2667,53.113999999999976,53.113999999999976,85
251,6167817,Torbay,40,CA,2022-11-24 03:24:40,86,47.6666,-52.7314,28.381999999999948,30.75799999999998,86
252,3893629,Coquimbo,0,CL,2022-11-24 03:23:17,82,-29.9533,-71.3436,58.72999999999996,58.72999999999996,82
253,5972291,Havre-St-Pierre,0,CA,2022-11-24 03:24:43,57,50.2334,-63.5986,16.160000000000025,19.399999999999977,57
254,2171722,Charters Towers,61,AU,2022-11-24 03:24:45,30,-20.1,146.2667,93.21800000000002,93.21800000000002,30
255,1505991,Igarka,27,RU,2022-11-24 03:24:46,98,67.4667,86.5833,-36.68799999999999,-36.68799999999999,98
256,2409914,Bonthe,100,SL,2022-11-24 03:24:48,81,7.5264,-12.505,77.36000000000007,77.36000000000007,81
257,1695107,Panique,54,PH,2022-11-24 03:24:52,79,12.4797,122.0153,83.22800000000001,83.22800000000001,79
258,1529484,Kumul,100,CN,2022-11-24 03:24:54,46,42.8,93.45,36.55400000000003,36.55400000000003,46
259,2070998,Geraldton,0,AU,2022-11-24 03:24:56,46,-28.7667,114.6,75.61399999999998,75.61399999999998,46
260,521118,Nizhnekamsk,100,RU,2022-11-24 03:24:58,100,55.6366,51.8245,28.652000000000044,29.19199999999995,100
261,3361934,Saldanha,73,ZA,2022-11-24 03:24:59,82,-33.0117,17.9442,60.853999999999985,60.853999999999985,82
262,2136825,Isangel,55,VU,2022-11-24 03:25:01,70,-19.55,169.2667,87.90799999999996,87.90799999999996,70
263,3347353,Menongue,97,AO,2022-11-24 03:25:03,91,-14.6585,17.691,61.52000000000004,61.52000000000004,91
264,729839,Kubrat,36,BG,2022-11-24 03:25:05,96,43.8,26.5,45.94999999999993,45.94999999999993,96
265,2156643,Mount Gambier,44,AU,2022-11-24 03:25:07,49,-37.8333,140.7667,63.93199999999996,63.93199999999996,49
266,1501356,Kuragino,97,RU,2022-11-24 03:25:09,75,53.8975,92.6725,2.731999999999971,2.731999999999971,75
267,3430863,Mar del Plata,0,AR,2022-11-24 03:21:39,80,-38.0023,-57.5575,52.82600000000008,62.94199999999995,80
268,5866063,Kenai,0,US,2022-11-24 03:25:15,95,60.5544,-151.2583,19.489999999999952,28.147999999999968,95
269,10722858,Forsytheganj,100,BY,2022-11-24 03:25:17,96,52.6333,29.7333,15.133999999999958,15.133999999999958,96
270,1791779,Wanning,67,CN,2022-11-24 03:25:19,76,18.8003,110.3967,82.14799999999997,82.14799999999997,76
271,4033557,Tautira,100,PF,2022-11-24 03:25:21,85,-17.7333,-149.15,76.19,76.19,85
272,2012956,Yerbogachën,99,RU,2022-11-24 03:25:24,98,61.2767,108.0108,-8.769999999999982,-8.769999999999982,98
273,3460174,Janaúba,100,BR,2022-11-24 03:23:58,92,-15.8025,-43.3089,69.54799999999994,69.54799999999994,92
274,4787534,Sterling,0,US,2022-11-24 03:12:35,59,39.0062,-77.4286,34.789999999999964,46.41800000000006,59
275,2966356,Bantry,99,IE,2022-11-24 03:25:29,87,51.6833,-9.45,52.79000000000002,52.79000000000002,87
276,3838233,Salta,0,AR,2022-11-24 03:20:32,53,-24.7859,-65.4117,64.99400000000009,65.57,53
277,3897774,Buin,9,CL,2022-11-24 03:22:07,59,-33.7333,-70.75,64.43599999999998,75.73999999999995,59
278,2297810,Mumford,42,GH,2022-11-24 03:25:34,82,5.2618,-0.759,78.80000000000001,78.80000000000001,82
279,3663693,Jutaí,90,BR,2022-11-24 03:25:36,99,-5.1833,-68.9,69.72800000000001,69.72800000000001,99
280,1215502,Banda Aceh,64,ID,2022-11-24 03:25:38,68,5.5577,95.3222,82.94,82.94,68
281,5484874,Portales,9,US,2022-11-24 03:25:40,32,34.1862,-103.3344,40.333999999999946,44.94199999999995,32
282,3374083,Bathsheba,40,BB,2022-11-24 03:25:42,83,13.2167,-59.5167,79.41199999999998,79.41199999999998,83
283,485215,Synya,82,RU,2022-11-24 03:25:43,100,65.3718,58.0387,-9.77800000000002,-9.77800000000002,100
284,962367,Richards Bay,0,ZA,2022-11-24 03:25:45,83,-28.783,32.0377,71.67199999999997,71.67199999999997,83
285,2716166,Enköping,100,SE,2022-11-24 03:25:47,90,59.6361,17.0777,32.036,33.656000000000006,90
286,3032556,Biscarrosse,75,FR,2022-11-24 03:25:48,76,44.3945,-1.1672,55.34600000000006,55.34600000000006,76
287,5779036,North Ogden,0,US,2022-11-24 03:24:41,76,41.3072,-111.9602,27.949999999999932,35.67199999999997,76
288,3395981,Maceió,0,BR,2022-11-24 03:23:51,94,-9.6658,-35.7353,72.84199999999993,72.84199999999993,94
289,3347019,Mossamedes,31,AO,2022-11-24 03:25:57,77,-15.1961,12.1522,71.88799999999998,71.88799999999998,77
290,686090,Asău,35,RO,2022-11-24 03:25:59,95,46.4333,26.4,32.91800000000006,33.27800000000002,95
291,2383119,Sibut,32,CF,2022-11-24 03:26:01,60,5.718,19.0739,72.13999999999993,72.13999999999993,60
292,5367788,Lompoc,0,US,2022-11-24 03:25:50,96,34.6391,-120.4579,48.920000000000016,64.77800000000008,96
293,2077895,Alice Springs,100,AU,2022-11-24 03:26:05,83,-23.7,133.8833,67.55000000000001,67.55000000000001,83
294,1856068,Nago,96,JP,2022-11-24 03:26:08,77,26.5881,127.9761,72.44599999999997,73.83199999999994,77
295,2381972,Adrar,20,MR,2022-11-24 03:26:09,17,20.5022,-10.0711,62.906000000000006,62.906000000000006,17
296,6620339,Karratha,89,AU,2022-11-24 03:26:12,39,-20.7377,116.8463,88.01600000000002,88.01600000000002,39
297,2332453,Lagos,6,NG,2022-11-24 03:26:15,96,6.5833,3.75,79.12399999999997,79.12399999999997,96
298,2738381,Lata,100,PT,2022-11-24 03:26:18,91,40.1629,-8.3327,55.92199999999997,61.807999999999936,91
299,3412093,Vestmannaeyjar,100,IS,2022-11-24 03:24:17,70,63.4427,-20.2734,43.37600000000003,43.37600000000003,70
300,550512,Kharovsk,78,RU,2022-11-24 03:26:22,93,59.9642,40.1912,14.107999999999947,14.107999999999947,93
301,5533366,West Odessa,20,US,2022-11-24 03:26:24,91,31.8424,-102.4988,47.822,49.406000000000006,91
302,180868,Sagana,82,KE,2022-11-24 03:26:26,92,-0.6667,37.2,61.41199999999998,61.41199999999998,92
303,5917275,Carman,97,CA,2022-11-24 03:23:28,80,49.4992,-98.0016,31.89199999999994,34.71800000000002,80
304,1733432,Kota Kinabalu,20,MY,2022-11-24 03:26:30,74,5.9749,116.0724,86.882,89.58199999999994,74
305,3699980,El Real de Santa Maria,43,PA,2022-11-24 03:26:33,98,8.109,-77.7325,71.92399999999992,71.92399999999992,98
306,1880252,Singapore,75,SG,2022-11-24 03:14:45,63,1.2897,103.8501,86.08999999999997,89.54599999999999,63
307,1693239,Plaridel,63,PH,2022-11-24 03:26:36,63,14.8872,120.8572,89.58199999999994,91.11200000000002,63
308,5380437,Pacific Grove,86,US,2022-11-24 03:26:38,83,36.6177,-121.9166,50.82800000000003,57.54199999999997,83
309,1733953,Lahad Datu,72,MY,2022-11-24 03:26:39,64,5.0268,118.327,85.98200000000003,85.98200000000003,64
310,2644605,Lerwick,100,GB,2022-11-24 03:25:20,88,60.1545,-1.1494,48.19999999999993,48.19999999999993,88
311,3622247,Puerto Limón,94,CR,2022-11-24 03:26:43,87,10.0,-83.0333,76.74799999999999,76.74799999999999,87
312,2024848,Drovyanaya,100,RU,2022-11-24 03:26:44,86,51.5833,113.0333,12.344000000000051,12.344000000000051,86
313,5850554,Makakilo City,100,US,2022-11-24 03:26:46,63,21.3469,-158.0858,72.19400000000002,77.32400000000001,63
314,2138555,Poum,49,NC,2022-11-24 03:26:48,78,-20.2333,164.0167,79.16000000000003,79.16000000000003,78
315,3372760,Praia da Vitória,75,PT,2022-11-24 03:26:45,94,38.7333,-27.0667,57.452000000000055,57.75799999999998,94
316,2422465,Conakry,100,GN,2022-11-24 03:26:52,69,9.538,-13.6773,79.71800000000002,79.71800000000002,69
317,6096551,Pangnirtung,9,CA,2022-11-24 03:26:53,61,66.1451,-65.7125,-1.2280000000000086,-1.2280000000000086,61
318,2181625,Te Anau,66,NZ,2022-11-24 03:26:55,67,-45.4167,167.7167,53.18599999999998,53.18599999999998,67
319,3115824,Muros,91,ES,2022-11-24 03:26:57,89,42.7762,-9.0603,52.68199999999996,59.089999999999975,89
320,1090119,Bandraboua,6,YT,2022-11-24 03:26:59,77,-12.7044,45.1223,80.27600000000001,80.27600000000001,77
321,1714733,Dingle,80,PH,2022-11-24 03:27:00,73,10.9995,122.6711,85.65799999999996,85.65799999999996,73
322,293842,Kiryat Gat,81,IL,2022-11-24 03:27:02,100,31.61,34.7642,60.78199999999998,64.39999999999992,100
323,3665202,Aripuanã,57,BR,2022-11-24 03:27:04,99,-9.1667,-60.6333,71.38399999999996,71.38399999999996,99
324,2122493,Omsukchan,100,RU,2022-11-24 03:27:06,93,62.5333,155.8,-17.877999999999986,-17.877999999999986,93
325,1513491,Yangi Marg`ilon,98,UZ,2022-11-24 03:27:11,81,40.4272,71.7189,39.920000000000016,39.920000000000016,81
326,780687,Berlevåg,23,NO,2022-11-24 03:27:15,68,70.8578,29.0864,17.402000000000044,22.946000000000026,68
327,1224061,Wattegama,96,LK,2022-11-24 03:27:17,74,6.7989,81.4808,80.20400000000001,80.20400000000001,74
328,2439155,Tanout,0,NE,2022-11-24 03:27:19,24,14.9709,8.8879,64.21999999999997,64.21999999999997,24
329,726307,Tran,68,BG,2022-11-24 03:27:21,88,42.8353,22.6517,41.97199999999998,41.97199999999998,88
330,4162539,Lockhart,100,US,2022-11-24 03:23:35,96,28.6194,-81.4426,64.72399999999999,69.15199999999999,96
331,2177069,Ballina,100,AU,2022-11-24 03:27:24,61,-28.8667,153.5667,80.78000000000003,81.01399999999995,61
332,534423,Loknya,100,RU,2022-11-24 03:27:26,97,56.83,30.1467,26.096000000000004,26.096000000000004,97
333,374739,Gogrial,13,SS,2022-11-24 03:27:28,43,8.5332,28.1004,76.20799999999991,76.20799999999991,43
334,2013727,Vanavara,100,RU,2022-11-24 03:27:29,96,60.34,102.2797,-5.9080000000000155,-5.9080000000000155,96
335,1489656,Teya,100,RU,2022-11-24 03:27:31,97,60.3778,92.6267,-17.337999999999965,-17.337999999999965,97
336,2669047,Timrå,100,SE,2022-11-24 03:27:33,86,62.487,17.3257,26.276000000000067,26.276000000000067,86
337,5924618,Cochrane,40,CA,2022-11-24 03:26:00,47,51.1834,-114.4687,23.899999999999977,39.47000000000003,47
338,2037222,Gongzhuling,100,CN,2022-11-24 03:27:36,67,43.5008,124.8198,37.79599999999999,37.79599999999999,67
339,1504075,Kazachinskoye,100,RU,2022-11-24 03:27:38,90,57.6953,93.2761,-8.050000000000011,-8.050000000000011,90
340,986717,Kruisfontein,86,ZA,2022-11-24 03:27:40,85,-34.0033,24.7314,61.88000000000005,61.88000000000005,85
341,2120591,Tilichiki,100,RU,2022-11-24 03:27:42,93,60.4667,166.1,0.42799999999999727,0.42799999999999727,93
342,709270,Eskhar,100,UA,2022-11-24 03:27:45,84,49.7987,36.5883,31.586000000000013,31.586000000000013,84
343,6361748,Magán,16,ES,2022-11-24 03:27:48,94,39.9683,-3.931,54.122000000000014,54.122000000000014,94
344,2022083,Alekseyevsk,100,RU,2022-11-24 03:27:51,94,57.8406,108.3492,8.041999999999973,8.041999999999973,94
345,3459440,Juquiá,99,BR,2022-11-24 03:27:53,100,-24.3208,-47.6347,70.142,70.142,100
346,933178,Pandamatenga,98,BW,2022-11-24 03:27:57,75,-18.5278,25.627,70.358,70.358,75
347,1280957,Jiayuguan City,99,CN,2022-11-24 03:28:00,28,39.8167,98.3,39.21800000000002,39.21800000000002,28
348,1259385,Port Blair,75,IN,2022-11-24 03:28:02,83,11.6667,92.75,82.43599999999998,82.43599999999998,83
349,779330,Kautokeino,100,NO,2022-11-24 03:28:04,96,69.0125,23.0412,11.660000000000025,11.660000000000025,96
350,3385899,Tutóia,64,BR,2022-11-24 03:28:06,76,-2.7619,-42.2744,79.39400000000006,79.39400000000006,76
351,3932145,Pisco,0,PE,2022-11-24 03:28:08,88,-13.7,-76.2167,64.02199999999999,66.25399999999996,88
352,2037078,Hailar,100,CN,2022-11-24 03:28:11,93,49.2,119.7,17.599999999999966,17.599999999999966,93
353,557140,Il’inskiy,100,RU,2022-11-24 03:28:14,93,55.619,38.1182,23.720000000000027,27.373999999999967,93
354,3843123,Neuquén,0,AR,2022-11-24 03:28:15,43,-38.9516,-68.0591,70.55599999999998,71.4919999999999,43
355,5972762,Hay River,75,CA,2022-11-24 03:28:17,86,60.8156,-115.7999,17.563999999999965,19.381999999999948,86
356,2548885,Fes,0,MA,2022-11-24 03:28:20,87,34.0372,-4.9998,48.452000000000055,48.452000000000055,87
357,582447,Almaznyy,100,RU,2022-11-24 03:28:22,78,48.0448,40.045,33.98000000000002,33.98000000000002,78
358,1254046,Tura,7,IN,2022-11-24 03:28:24,68,25.5198,90.2201,71.00600000000003,71.00600000000003,68
359,7671223,Kloulklubed,21,PW,2022-11-24 03:28:27,74,7.0419,134.2556,82.90400000000005,82.90400000000005,74
360,5853992,Wahiawā,100,US,2022-11-24 03:27:56,69,21.5028,-158.0236,70.37600000000003,75.52399999999994,69
361,1510689,Baykit,100,RU,2022-11-24 03:28:31,97,61.67,96.37,-9.706000000000017,-9.706000000000017,97
362,1735634,Kuching,20,MY,2022-11-24 03:26:57,87,1.55,110.3333,78.09800000000001,84.416,87
363,1490256,Talnakh,12,RU,2022-11-24 03:28:35,96,69.4865,88.3972,-30.621999999999957,-30.621999999999957,96
364,3433899,Formosa,0,AR,2022-11-24 03:28:37,88,-26.1775,-58.1781,67.98200000000003,67.98200000000003,88
365,737021,Zonguldak,100,TR,2022-11-24 03:28:38,78,41.25,31.8333,48.75799999999998,48.75799999999998,78
366,212902,Kindu,62,CD,2022-11-24 03:28:40,99,-2.95,25.95,66.09199999999993,66.09199999999993,99
367,3835869,Santiago del Estero,0,AR,2022-11-24 03:28:43,42,-27.7951,-64.2615,73.59800000000001,73.59800000000001,42
368,6111862,Port Hardy,100,CA,2022-11-24 03:28:45,81,50.6996,-127.4199,48.379999999999995,48.379999999999995,81
369,2510075,Utiel,45,ES,2022-11-24 03:28:47,88,39.5667,-1.2,50.863999999999976,50.863999999999976,88
370,240210,Birao,45,CF,2022-11-24 03:28:48,40,10.2849,22.7882,69.87200000000001,69.87200000000001,40
371,359792,Aswān,0,EG,2022-11-24 03:28:50,42,24.0934,32.907,63.698000000000036,63.698000000000036,42
372,1499779,Malinovoye Ozero,92,RU,2022-11-24 03:28:52,86,51.6753,79.7825,3.452000000000055,3.452000000000055,86
373,7647007,Bariloche,40,AR,2022-11-24 03:27:46,71,-41.1456,-71.3082,55.14799999999997,55.14799999999997,71
374,3832899,Viedma,3,AR,2022-11-24 03:28:59,43,-40.8135,-62.9967,69.11599999999993,69.11599999999993,43
375,6062069,Lunenburg,13,CA,2022-11-24 03:24:49,57,44.3835,-64.3155,28.994000000000028,32.05400000000003,57
376,934322,Mahébourg,40,MU,2022-11-24 03:29:04,78,-20.4081,57.7,77.28799999999995,79.24999999999994,78
377,1800498,Mingshui,0,CN,2022-11-24 03:29:06,46,36.7167,117.5,61.952000000000055,61.952000000000055,46
378,1648082,Boyolangu,100,ID,2022-11-24 03:29:09,79,-8.1181,111.8935,81.26600000000002,81.26600000000002,79
379,2294915,Takoradze,96,GH,2022-11-24 03:29:11,83,4.8845,-1.7554,78.56599999999997,78.56599999999997,83
380,1264794,Lonār,48,IN,2022-11-24 03:29:14,43,19.9833,76.5333,68.46800000000002,68.46800000000002,43
381,2129324,Makubetsu,75,JP,2022-11-24 03:29:16,57,45.3714,141.8211,44.31200000000001,44.31200000000001,57
382,5847411,Kahului,75,US,2022-11-24 03:29:19,65,20.8947,-156.47,71.9600000000001,78.81800000000004,65
383,4791259,Virginia Beach,0,US,2022-11-24 03:29:15,87,36.8529,-75.978,32.05400000000003,48.02000000000004,87
384,4273680,Junction City,100,US,2022-11-24 03:29:23,86,39.0286,-96.8314,49.603999999999985,51.656000000000006,86
385,1106643,Quatre Cocos,43,MU,2022-11-24 03:29:25,73,-20.2078,57.7625,77.108,79.08800000000002,73
386,102527,Sakakah,69,SA,2022-11-24 03:29:27,49,29.9697,40.2064,65.76800000000009,65.76800000000009,49
387,1274899,Chākia,4,IN,2022-11-24 03:29:29,46,26.4167,85.05,67.35200000000003,67.35200000000003,46
388,5955902,Fort Nelson,100,CA,2022-11-24 03:29:30,77,58.8053,-122.7002,27.986000000000047,30.937999999999988,77
389,190544,Konza,73,KE,2022-11-24 03:29:32,96,-1.7426,37.1294,57.488,57.488,96
390,3440777,Rocha,1,UY,2022-11-24 03:27:26,56,-34.4833,-54.3333,59.93599999999998,59.93599999999998,56
391,1265911,Kottayam,87,IN,2022-11-24 03:29:35,76,9.5833,76.5167,76.17199999999997,76.17199999999997,76
392,3460825,Itamarandiba,100,BR,2022-11-24 03:29:37,99,-17.8572,-42.8589,63.428000000000054,63.428000000000054,99
393,5404476,Ukiah,0,US,2022-11-24 03:29:39,75,39.1502,-123.2078,48.09199999999993,57.11000000000007,75
394,1640902,Kawalu,100,ID,2022-11-24 03:29:41,88,-7.3817,108.2082,76.55000000000001,76.55000000000001,88
395,141679,Bandar-e Anzali,88,IR,2022-11-24 03:29:42,81,37.4727,49.4622,53.70799999999991,53.70799999999991,81
396,509826,Petrov Val,95,RU,2022-11-24 03:29:45,87,50.1434,45.2096,34.86200000000002,34.86200000000002,87
397,2732340,Mata,100,PT,2022-11-24 03:29:47,92,40.683,-7.4592,52.178,52.178,92
398,2412408,Nioro,96,GM,2022-11-24 03:29:49,22,13.35,-15.75,71.74400000000009,71.74400000000009,22
399,3899695,Ancud,38,CL,2022-11-24 03:29:51,90,-41.8697,-73.8203,49.099999999999966,49.099999999999966,90
400,3572462,Dunmore Town,11,BS,2022-11-24 03:29:53,77,25.5,-76.65,80.06,80.06,77
401,1267390,Kavaratti,86,IN,2022-11-24 03:29:56,77,10.5669,72.642,79.48399999999998,79.48399999999998,77
402,608270,Shubarshi,64,KZ,2022-11-24 03:29:58,92,48.5872,57.1869,36.823999999999955,36.823999999999955,92
403,110690,Abhā,0,SA,2022-11-24 03:30:01,93,18.2164,42.5053,46.652000000000044,48.02000000000004,93
404,2438855,Téra,3,NE,2022-11-24 03:30:04,17,14.0078,0.7531,70.26800000000009,70.26800000000009,17
405,3175096,Laas,36,IT,2022-11-24 03:30:07,92,46.6166,10.7002,29.029999999999973,29.029999999999973,92
406,576093,Blagoyevo,80,RU,2022-11-24 03:30:10,99,63.3667,47.9167,1.4899999999999523,1.4899999999999523,99
407,2015179,Tommot,68,RU,2022-11-24 03:30:12,94,58.9564,126.2925,-5.439999999999998,-5.439999999999998,94
408,55671,Kismayo,59,SO,2022-11-24 03:30:14,75,-0.3582,42.5454,79.77199999999999,79.77199999999999,75
409,211647,Lodja,69,CD,2022-11-24 03:30:17,99,-3.4833,23.4333,66.56,66.56,99
410,1540475,Turtas,5,RU,2022-11-24 03:30:19,97,58.9417,69.1325,-10.029999999999973,-10.029999999999973,97
411,2362669,Batié,82,BF,2022-11-24 03:30:21,28,9.8833,-2.9167,71.88799999999998,71.88799999999998,28
412,4255151,Bud,100,US,2022-11-24 03:30:23,68,39.447,-86.1758,37.346000000000004,47.822,68
413,1504382,Kargasok,100,RU,2022-11-24 03:30:25,95,59.0556,80.8572,-1.3180000000000405,-1.3180000000000405,95
414,5882953,Aklavik,97,CA,2022-11-24 03:30:27,98,68.2191,-135.0107,2.731999999999971,2.731999999999971,98
415,5969025,Haines Junction,100,CA,2022-11-24 03:30:29,93,60.7522,-137.5108,28.346000000000004,28.346000000000004,93
416,2063042,Port Hedland,20,AU,2022-11-24 03:29:32,58,-20.3167,118.5667,86.05400000000003,86.05400000000003,58
417,637292,Savonlinna,100,FI,2022-11-24 03:30:32,92,61.8699,28.88,15.853999999999985,15.853999999999985,92
418,352733,Marsá Maţrūḩ,40,EG,2022-11-24 03:30:34,47,31.3525,27.2453,57.39799999999997,57.39799999999997,47
419,2630299,Hofn,100,IS,2022-11-24 03:30:36,94,64.2539,-15.2082,43.62800000000004,43.62800000000004,94
420,3893726,Constitución,30,CL,2022-11-24 03:30:38,79,-35.3333,-72.4167,61.19599999999997,61.19599999999997,79
421,1244926,Hambantota,20,LK,2022-11-24 03:30:40,78,6.1241,81.1185,82.7419999999999,82.7419999999999,78
422,4362001,Mayo,0,US,2022-11-24 03:30:42,74,38.8876,-76.5119,35.581999999999994,48.72199999999998,74
423,555801,Ispravnaya,91,RU,2022-11-24 03:30:44,47,44.0682,41.6102,44.06000000000006,44.06000000000006,47
424,1648186,Bontang,100,ID,2022-11-24 03:30:47,77,0.1333,117.5,82.68800000000005,82.68800000000005,77
425,2112309,Katsuura,12,JP,2022-11-24 03:30:49,52,35.1333,140.3,65.66000000000003,65.66000000000003,52
426,2439376,Tahoua,0,NE,2022-11-24 03:30:51,22,14.8888,5.2692,67.98200000000003,67.98200000000003,22
427,1062663,Mahajanga,40,MG,2022-11-24 03:31:00,83,-15.7167,46.3167,75.21800000000002,75.21800000000002,83
428,217570,Buta,34,CD,2022-11-24 03:31:03,97,2.7858,24.73,66.07400000000001,66.07400000000001,97
429,2610343,Vestmanna,100,FO,2022-11-24 03:31:05,93,62.1564,-7.1664,45.51800000000003,45.51800000000003,93
430,3126369,Carballo,96,ES,2022-11-24 03:31:08,90,43.213,-8.691,52.43000000000001,55.77800000000008,90
431,2031405,Erdenet,100,MN,2022-11-24 03:31:11,92,49.0333,104.0833,14.954000000000008,14.954000000000008,92
432,60019,Eyl,24,SO,2022-11-24 03:31:16,74,7.9803,49.8164,77.30599999999998,77.30599999999998,74
433,2219235,Ubari,3,LY,2022-11-24 03:31:19,46,26.5921,12.7805,55.202000000000055,55.202000000000055,46
434,2276492,Harper,32,LR,2022-11-24 03:31:22,85,4.375,-7.7169,77.43199999999996,77.43199999999996,85
435,2142316,Yeppoon,73,AU,2022-11-24 03:29:00,56,-23.1333,150.7333,87.584,87.584,56
436,2063039,Port Keats,97,AU,2022-11-24 03:31:27,53,-14.25,129.55,87.56599999999997,87.56599999999997,53
437,1519275,Shar,100,KZ,2022-11-24 03:31:29,97,49.5886,81.0453,-1.6240000000000236,-1.6240000000000236,97
438,1624041,Ternate,99,ID,2022-11-24 03:31:32,68,0.8,127.4,85.334,85.334,68
439,5746545,Portland,75,US,2022-11-24 03:23:48,91,45.5234,-122.6762,39.146000000000015,49.98199999999997,91
440,6355222,Yulara,79,AU,2022-11-24 03:31:36,48,-25.2406,130.9889,78.512,78.512,48
441,1277874,Bāgli,12,IN,2022-11-24 03:31:38,36,22.65,76.35,69.44,69.44,36
442,3374333,Praia,20,CV,2022-11-24 03:31:41,69,14.9215,-23.5087,75.73999999999995,75.73999999999995,69
443,5134295,Rome,63,US,2022-11-24 03:26:02,94,43.2128,-75.4557,28.381999999999948,31.946000000000026,94
444,2643044,Margate,60,GB,2022-11-24 03:31:45,91,51.3813,1.3862,43.69999999999993,45.30200000000002,91
445,2094342,Kavieng,66,PG,2022-11-24 03:31:48,60,-2.5744,150.7967,85.91000000000003,85.91000000000003,60
446,1862505,Hirara,75,JP,2022-11-24 03:31:53,94,24.8,125.2833,71.45599999999996,73.67000000000002,94
447,1502073,Krasnosel'kup,86,RU,2022-11-24 03:31:55,100,65.7,82.4667,-28.408000000000015,-28.408000000000015,100
448,653272,Kemijärvi,73,FI,2022-11-24 03:31:57,98,66.7131,27.4306,15.386000000000024,15.386000000000024,98
449,2160735,Lakes Entrance,14,AU,2022-11-24 03:31:58,64,-37.8811,147.981,69.17000000000002,69.17000000000002,64
450,2160517,Launceston,93,AU,2022-11-24 03:29:03,58,-41.45,147.1667,66.79400000000004,71.618,58
451,6541257,Monopoli,0,IT,2022-11-24 03:32:03,72,40.9559,17.2896,46.615999999999985,48.72199999999998,72
452,2111884,Miyako,100,JP,2022-11-24 03:32:05,89,39.6367,141.9525,50.936000000000035,50.936000000000035,89
453,2440485,Niamey,0,NE,2022-11-24 03:32:08,24,13.5137,2.1098,71.88799999999998,71.88799999999998,24
454,527321,Mezen',37,RU,2022-11-24 03:32:10,96,65.8522,44.24,11.19199999999995,11.19199999999995,96
455,1253783,Una,1,IN,2022-11-24 03:32:13,32,20.8167,71.0333,78.76399999999995,78.76399999999995,32
456,1737486,Bintulu,20,MY,2022-11-24 03:32:15,89,3.1667,113.0333,81.01399999999995,81.01399999999995,89
457,1140025,Herat Province,0,AF,2022-11-24 03:32:17,27,34.5,62.0,52.79000000000002,52.79000000000002,27
458,5847486,Kailua,9,US,2022-11-24 03:32:20,82,21.4022,-157.7394,73.65199999999999,78.78199999999998,82
459,107304,Buraidah,99,SA,2022-11-24 03:32:12,32,26.326,43.975,64.84999999999997,64.84999999999997,32
460,1734313,Paka,20,MY,2022-11-24 03:32:23,74,4.6374,103.4368,85.92800000000005,87.38600000000002,74
461,1850523,Tateyama,53,JP,2022-11-24 03:32:25,57,34.9833,139.8667,65.2100000000001,65.2100000000001,57
462,1808857,Hanzhong,95,CN,2022-11-24 03:32:27,68,33.0728,107.0303,58.117999999999995,58.117999999999995,68
463,1540711,Muravlenko,50,RU,2022-11-24 03:32:29,100,63.7898,74.523,-17.35600000000005,-17.35600000000005,100
464,3836669,San Rafael,6,AR,2022-11-24 03:32:31,29,-34.6177,-68.3301,75.66800000000006,75.66800000000006,29
465,584279,Adamovka,100,RU,2022-11-24 03:32:33,98,51.5223,59.9396,31.244000000000028,31.244000000000028,98
466,1498402,Mortka,5,RU,2022-11-24 03:32:35,97,59.3322,66.0214,-9.238,-9.238,97
467,912628,Kasempa,100,ZM,2022-11-24 03:32:37,92,-13.4584,25.8338,63.86000000000007,63.86000000000007,92
468,2122614,Ekhabi,46,RU,2022-11-24 03:32:39,71,53.5102,142.9671,19.77800000000002,19.77800000000002,71
469,5919850,Chapais,63,CA,2022-11-24 03:32:41,95,49.7834,-74.8492,8.383999999999958,8.383999999999958,95
470,151610,Ngorongoro,43,TZ,2022-11-24 03:32:43,93,-3.2397,35.4875,51.29599999999999,51.29599999999999,93
471,477940,Ust-Tsilma,96,RU,2022-11-24 03:32:45,100,65.441,52.1498,-2.362000000000023,-2.362000000000023,100
472,211734,Lisala,14,CD,2022-11-24 03:32:47,98,2.15,21.5167,67.55000000000001,67.55000000000001,98
473,3448903,São João da Barra,100,BR,2022-11-24 03:32:49,88,-21.6403,-41.0511,74.24600000000004,74.24600000000004,88
474,5517061,Big Spring,3,US,2022-11-24 03:32:51,89,32.2504,-101.4787,51.24199999999996,52.24999999999994,89
475,296852,Erzin,51,TR,2022-11-24 03:32:57,59,36.9559,36.2,58.622000000000014,58.622000000000014,59
476,5975034,High Prairie,100,CA,2022-11-24 03:32:59,79,55.4334,-116.4858,33.69199999999995,33.69199999999995,79
477,3469932,Boa Esperança,100,BR,2022-11-24 03:33:01,90,-21.09,-45.5658,63.914000000000044,63.914000000000044,90
478,3883457,Lebu,34,CL,2022-11-24 03:32:04,93,-37.6167,-73.65,56.62399999999997,56.62399999999997,93
479,4946620,Palmer,0,US,2022-11-24 03:33:04,78,42.1584,-72.3287,24.349999999999966,37.92199999999997,78
480,2212775,Sabha,4,LY,2022-11-24 03:33:06,43,27.0377,14.4283,55.72399999999999,55.72399999999999,43
481,2123814,Leningradskiy,100,RU,2022-11-24 03:33:08,98,69.3833,178.4167,-3.7480000000000473,-3.7480000000000473,98
482,2030065,Mandalgovi,66,MN,2022-11-24 03:33:13,65,45.7625,106.2708,28.076000000000022,28.076000000000022,65
483,740481,Rize,88,TR,2022-11-24 03:33:15,49,40.9044,40.8949,39.79400000000004,39.79400000000004,49
484,5318313,Tucson,0,US,2022-11-24 03:29:36,34,32.2217,-110.9265,50.52199999999999,58.42399999999992,34
485,699413,Novomykolayivka,100,UA,2022-11-24 03:33:19,75,47.9781,35.9102,38.822,38.822,75
486,3664980,Boa Vista,40,BR,2022-11-24 03:33:20,83,2.8197,-60.6733,78.78199999999998,78.78199999999998,83
487,559034,Grayvoron,100,RU,2022-11-24 03:33:22,79,50.4767,35.6773,31.855999999999995,31.855999999999995,79
488,3388760,São Geraldo do Araguaia,92,BR,2022-11-24 03:33:24,91,-6.4006,-48.555,73.61599999999993,73.61599999999993,91
489,1298987,Pyinmana,71,MM,2022-11-24 03:33:27,60,19.7333,96.2167,83.642,83.642,60
490,2185329,Otane,78,NZ,2022-11-24 03:33:30,55,-39.8833,176.6333,67.01000000000005,67.01000000000005,55
491,3904906,Santa Cruz de la Sierra,100,BO,2022-11-24 03:32:26,69,-17.8,-63.1667,74.66000000000003,74.66000000000003,69
492,4036284,Alofi,75,NU,2022-11-24 03:33:34,65,-19.0595,-169.9187,82.29199999999997,82.29199999999997,65
493,3864331,Bell Ville,12,AR,2022-11-24 03:33:36,35,-32.6259,-62.6887,71.67199999999997,71.67199999999997,35
494,3460087,Jardim,43,BR,2022-11-24 03:33:43,83,-21.4803,-56.1381,66.88399999999996,66.88399999999996,83
495,3386177,Trairi,11,BR,2022-11-24 03:32:14,76,-3.2778,-39.2689,77.68399999999991,77.68399999999991,76
496,4686163,Dickinson,20,US,2022-11-24 03:33:46,91,29.4608,-95.0513,59.95400000000001,64.13000000000005,91
497,2647356,Hastings,44,GB,2022-11-24 03:33:48,73,50.8552,0.5729,42.799999999999955,51.78199999999998,73
498,2638534,Sandwick,75,GB,2022-11-24 03:33:50,93,60.0,-1.25,48.02000000000004,48.02000000000004,93
499,3452711,Porto Nacional,76,BR,2022-11-24 03:33:52,92,-10.7081,-48.4172,78.80000000000001,78.80000000000001,92
500,942470,Vryheid,0,ZA,2022-11-24 03:33:54,65,-27.7695,30.7917,64.13000000000005,64.13000000000005,65
501,4845585,Westport,0,US,2022-11-24 03:30:56,66,41.1415,-73.3579,32.10799999999995,45.823999999999955,66
502,2017215,Sangar,98,RU,2022-11-24 03:33:58,96,63.9242,127.4739,-19.624000000000024,-19.624000000000024,96
503,2027316,Ayan,42,RU,2022-11-24 03:34:00,53,56.45,138.1667,12.812000000000012,12.812000000000012,53
504,2013918,Ust-Maya,97,RU,2022-11-24 03:34:02,97,60.4167,134.5333,-16.906000000000006,-16.906000000000006,97
505,2210554,Sirte,0,LY,2022-11-24 03:34:04,46,31.2089,16.5887,63.33800000000002,63.33800000000002,46
506,1176608,Islamkot,19,PK,2022-11-24 03:34:06,22,24.6997,70.177,77.16199999999998,77.16199999999998,22
507,149703,Sumbawanga,100,TZ,2022-11-24 03:34:08,90,-7.9667,31.6167,59.773999999999944,59.773999999999944,90
508,287832,Ibrā’,86,OM,2022-11-24 03:34:10,51,22.6906,58.5334,73.27399999999994,73.27399999999994,51
509,1492948,Saryg-Sep,81,RU,2022-11-24 03:34:14,77,51.5,95.6,0.896000000000015,0.896000000000015,77
510,3580733,Bodden Town,20,KY,2022-11-24 03:34:16,86,19.2833,-81.25,77.98999999999995,80.99600000000004,86
511,3470137,Belmonte,89,BR,2022-11-24 03:34:18,89,-15.8631,-38.8828,73.72399999999999,73.72399999999999,89
512,2986626,Plouzané,75,FR,2022-11-24 03:34:20,82,48.3833,-4.6167,52.12399999999997,53.78000000000003,82
513,1651591,Amahai,99,ID,2022-11-24 03:34:22,65,-3.3333,128.9167,86.39600000000002,86.39600000000002,65
514,3629710,Puerto Ayacucho,100,VE,2022-11-24 03:34:24,92,5.6639,-67.6236,73.50799999999998,73.50799999999998,92
515,2027042,Batagay-Alyta,45,RU,2022-11-24 03:34:25,96,67.8006,130.4114,-29.541999999999973,-29.541999999999973,96
516,1653316,Savannakhet,75,LA,2022-11-24 03:34:27,94,16.566,104.751,77.01800000000009,77.01800000000009,94
517,3489440,Morant Bay,85,JM,2022-11-24 03:34:29,82,17.8815,-76.4093,77.70200000000006,80.22200000000004,82
518,1816080,Cangzhou,0,CN,2022-11-24 03:34:31,38,38.3167,116.8667,63.103999999999985,63.103999999999985,38
519,2128975,Nemuro,100,JP,2022-11-24 03:30:39,71,43.3236,145.575,46.32800000000003,46.32800000000003,71
520,2014624,Udachny,100,RU,2022-11-24 03:34:35,74,66.4167,112.4,-20.560000000000002,-20.560000000000002,74
521,2013865,Ust'-Uda,100,RU,2022-11-24 03:34:36,62,54.1742,103.0304,7.465999999999951,7.465999999999951,62
522,3698304,Chimbote,7,PE,2022-11-24 03:30:50,86,-9.0853,-78.5783,65.012,65.012,86
523,2522437,Adeje,20,ES,2022-11-24 03:34:40,81,28.1227,-16.726,61.10599999999994,69.56599999999997,81
524,2315026,Kasongo-Lunda,75,CD,2022-11-24 03:34:42,98,-6.4667,16.8167,66.95599999999996,66.95599999999996,98
525,5954718,Flin Flon,7,CA,2022-11-24 03:34:44,91,54.7682,-101.865,27.230000000000018,27.230000000000018,91
526,2158767,Mareeba,76,AU,2022-11-24 03:34:46,56,-17.0,145.4333,86.71999999999997,93.43399999999991,56
527,727221,Silistra,81,BG,2022-11-24 03:34:48,94,44.1167,27.2667,50.91800000000006,50.91800000000006,94
528,3359638,Walvis Bay,70,NA,2022-11-24 03:34:50,77,-22.9575,14.5053,57.09199999999993,58.15400000000005,77
529,3466696,Catalão,79,BR,2022-11-24 03:30:57,86,-18.1658,-47.9464,62.14999999999992,62.14999999999992,86
530,1524606,Derzhavīnsk,100,KZ,2022-11-24 03:34:54,94,51.1,66.3167,22.694000000000017,22.694000000000017,94
531,4726206,San Antonio,100,US,2022-11-24 03:28:34,94,29.4241,-98.4936,56.89400000000006,60.90799999999996,94
532,2189343,Kaeo,46,NZ,2022-11-24 03:34:57,72,-35.1,173.7833,67.31599999999997,67.31599999999997,72
533,1861280,Itoman,75,JP,2022-11-24 03:34:59,86,26.1247,127.6694,72.37399999999997,73.77800000000008,86
534,3696183,Iquitos,40,PE,2022-11-24 03:35:01,94,-3.7481,-73.2472,73.43599999999998,73.43599999999998,94
535,4440397,Pascagoula,0,US,2022-11-24 03:34:33,93,30.3658,-88.5561,49.99999999999994,57.25399999999996,93
536,2028462,Ulaanbaatar,40,MN,2022-11-24 03:32:02,78,47.9077,106.8832,5.126000000000033,5.126000000000033,78
537,6149996,Smithers,100,CA,2022-11-24 03:30:18,93,54.7804,-127.1743,37.72399999999999,37.72399999999999,93
538,276781,Beirut,20,LB,2022-11-24 03:35:09,59,33.8889,35.4944,63.33800000000002,63.33800000000002,59
539,1265888,Kovūr,58,IN,2022-11-24 03:35:11,71,14.4833,79.9833,81.93199999999996,81.93199999999996,71
540,5123718,Lackawanna,0,US,2022-11-24 03:35:13,85,42.8256,-78.8234,25.249999999999943,32.34199999999993,85
541,515805,Oktyabr'skoye,56,RU,2022-11-24 03:35:14,100,43.0645,44.7417,30.34400000000005,30.34400000000005,100
542,6171633,Ucluelet,100,CA,2022-11-24 03:30:59,87,48.9329,-125.5528,50.089999999999975,50.089999999999975,87
543,2016307,Solnechnyy,3,RU,2022-11-24 03:35:19,59,50.7214,136.6319,19.886000000000024,19.886000000000024,59
544,1491230,Sovetskiy,6,RU,2022-11-24 03:30:32,99,61.3614,63.5842,-4.48599999999999,-4.48599999999999,99
545,2122262,Palana,100,RU,2022-11-24 03:34:40,73,59.1167,159.9667,20.569999999999993,20.569999999999993,73
546,2656847,Atherton,30,GB,2022-11-24 03:35:26,91,53.5237,-2.4935,41.05400000000003,45.283999999999935,91
547,1508161,Cherepanovo,24,RU,2022-11-24 03:35:27,97,54.2222,83.381,-7.22199999999998,-7.22199999999998,97
548,1337617,Muli,91,MV,2022-11-24 03:35:29,75,2.9167,73.5667,81.77000000000004,81.77000000000004,75
549,3466165,Cidreira,3,BR,2022-11-24 03:35:31,78,-30.1811,-50.2056,64.65199999999999,64.65199999999999,78
550,5710035,West Wendover,0,US,2022-11-24 03:35:33,48,40.7391,-114.0733,36.60799999999995,36.60799999999995,48
551,5690366,Mandan,0,US,2022-11-24 03:33:22,84,46.8267,-100.8896,31.98199999999997,35.365999999999985,84
552,2013639,Verkhnevilyuysk,96,RU,2022-11-24 03:35:38,98,63.4453,120.3167,-24.646000000000015,-24.646000000000015,98
553,1797264,Quzhou,89,CN,2022-11-24 03:35:39,66,28.9594,118.8686,65.04799999999994,65.04799999999994,66
554,2256895,Mossendjo,98,CG,2022-11-24 03:35:41,99,-2.9506,12.7261,68.05400000000003,68.05400000000003,99
555,2541479,Nador,0,MA,2022-11-24 03:35:43,77,35.174,-2.9287,51.872000000000014,64.65199999999999,77
556,5062292,Valley City,0,US,2022-11-24 03:35:45,100,46.9233,-98.0032,23.52199999999999,23.52199999999999,100
557,2274275,Robertsport,100,LR,2022-11-24 03:35:47,80,6.7533,-11.3686,78.31400000000002,78.31400000000002,80
558,1067565,Beloha,1,MG,2022-11-24 03:35:48,55,-25.1667,45.05,80.23999999999995,80.23999999999995,55
559,1502879,Kolosovka,7,RU,2022-11-24 03:35:50,95,56.4678,73.611,-9.346000000000004,-9.346000000000004,95
560,2685750,Östersund,100,SE,2022-11-24 03:35:52,100,63.1792,14.6357,23.449999999999932,23.612000000000023,100
561,100926,Umluj,26,SA,2022-11-24 03:35:54,63,25.0213,37.2685,74.53399999999993,74.53399999999993,63
562,2109701,Auki,76,SB,2022-11-24 03:35:55,62,-8.7676,160.7034,86.57600000000008,86.57600000000008,62
563,4032420,Neiafu,40,TO,2022-11-24 03:35:57,78,-18.65,-173.9833,83.084,83.084,78
564,4866445,Mason City,81,US,2022-11-24 03:36:01,84,43.1536,-93.201,34.06999999999999,40.98199999999997,84
565,2016910,Severobaykal'sk,100,RU,2022-11-24 03:36:03,61,55.65,109.3167,12.812000000000012,12.812000000000012,61
566,2167426,Emerald,100,AU,2022-11-24 03:36:05,31,-23.5333,148.1667,82.34600000000006,82.34600000000006,31
567,1513023,Pop,92,UZ,2022-11-24 03:36:07,47,40.8736,71.1089,41.48600000000005,41.48600000000005,47
568,2662689,Visby,100,SE,2022-11-24 03:36:11,86,57.6409,18.296,32.82800000000003,34.05200000000002,86
569,1295765,Sittwe,83,MM,2022-11-24 03:36:12,56,20.15,92.9,79.43,79.43,56
570,2015217,Tokur,23,RU,2022-11-24 03:36:15,75,53.1333,132.9,3.433999999999969,3.433999999999969,75
571,2173125,Burnie,24,AU,2022-11-24 03:36:17,54,-41.0667,145.9167,63.94999999999999,63.94999999999999,54
572,5640350,Billings Metropolitan Area,75,US,2022-11-24 03:35:00,65,45.7833,-108.5007,35.51000000000005,38.96599999999995,65
573,2381334,Atar,0,MR,2022-11-24 03:36:04,15,20.5169,-13.0499,64.68800000000005,64.68800000000005,15
574,569579,Chekmagush,100,RU,2022-11-24 03:36:23,98,55.1319,54.6556,29.696000000000026,29.696000000000026,98
575,553766,Kamenka,100,RU,2022-11-24 03:36:25,93,51.3223,42.7678,33.18799999999999,33.18799999999999,93
576,2143285,Wodonga,6,AU,2022-11-24 03:36:27,52,-36.1167,146.8833,72.10399999999998,73.27399999999994,52
577,601551,Akdepe,100,TM,2022-11-24 03:36:29,60,42.0551,59.3788,46.48999999999995,46.48999999999995,60
578,525426,Sobolevo,96,RU,2022-11-24 03:36:30,97,54.4299,31.8996,24.349999999999966,24.349999999999966,97
579,2420826,Gaoual,88,GN,2022-11-24 03:36:32,39,11.75,-13.2,68.84600000000006,68.84600000000006,39
580,1217734,Boysun,3,UZ,2022-11-24 03:36:34,24,38.2061,67.1986,55.13000000000005,55.13000000000005,24
581,1497210,Novoagansk,99,RU,2022-11-24 03:36:36,98,61.9449,76.6625,0.896000000000015,0.896000000000015,98
582,2122783,Katangli,1,RU,2022-11-24 03:36:37,56,51.7102,143.2326,20.73199999999997,20.73199999999997,56
583,1220197,Varzob,14,TJ,2022-11-24 03:36:39,35,38.7737,68.8178,40.73000000000002,40.73000000000002,35
584,2278158,Buchanan,99,LR,2022-11-24 03:36:41,85,5.8808,-10.0467,77.32400000000001,77.32400000000001,85
585,2091996,Madang,99,PG,2022-11-24 03:36:43,64,-5.2246,145.7966,86.23399999999998,86.23399999999998,64
586,111822,Yazd,20,IR,2022-11-24 03:36:44,40,31.8972,54.3675,50.10799999999995,50.10799999999995,40
587,233114,Jinja,100,UG,2022-11-24 03:36:46,89,0.439,33.2032,65.012,65.012,89
588,57000,Hobyo,3,SO,2022-11-24 03:36:48,70,5.3505,48.5268,79.82600000000008,79.82600000000008,70
589,2337181,Iseyin,52,NG,2022-11-24 03:36:50,61,7.9667,3.6,71.36599999999993,71.36599999999993,61
590,3421765,Nanortalik,97,GL,2022-11-24 03:36:52,74,60.1432,-45.2371,30.03800000000001,30.03800000000001,74
591,1506268,Gornopravdinsk,22,RU,2022-11-24 03:36:55,95,60.05,69.9,-10.102000000000032,-10.102000000000032,95
592,1252795,Yanam,25,IN,2022-11-24 03:36:57,71,16.7333,82.2167,82.56200000000007,82.56200000000007,71
593,2155562,Nelson Bay,1,AU,2022-11-24 03:36:58,64,-32.7167,152.15,71.00600000000003,76.08199999999994,64
594,4026082,Lázaro Cárdenas,75,MX,2022-11-24 03:37:01,85,17.9583,-102.2,76.87399999999997,76.87399999999997,85
595,4844309,Torrington,11,US,2022-11-24 03:37:05,81,41.8007,-73.1212,26.689999999999998,38.19199999999995,81
596,3663517,Manaus,100,BR,2022-11-24 03:33:31,94,-3.1019,-60.025,73.90400000000005,75.68599999999998,94
597,3403353,Canindé,21,BR,2022-11-24 03:37:09,73,-4.3589,-39.3117,75.19999999999999,75.19999999999999,73
